{
    "type": "FeatureCollection",
    "features": [
        {
            "type": "Feature",
            "properties": {
                "name": "Boucherie Filhos Jérôme",
                "cmt": "Amenity:Boucherie Filhos Jerome: shop:butcher",
                "type": "airnnb - commerce",
                "time": "2022-10-22T18:48:27Z"
            },
            "geometry": {
                "type": "Point",
                "coordinates": [
                    1.4585316,
                    43.6057457,
                    152.2
                ]
            }
        },
        {
            "type": "Feature",
            "properties": {
                "name": "Boucherie Saint-Aubin",
                "cmt": "Amenity:Boucherie Saint-Aubin: shop:butcher",
                "type": "airnnb - commerce",
                "time": "2022-10-22T19:11:52Z"
            },
            "geometry": {
                "type": "Point",
                "coordinates": [
                    1.4538485,
                    43.6045027
                ]
            }
        },
        {
            "type": "Feature",
            "properties": {
                "name": "Carrefour City",
                "cmt": "Amenity:Carrefour City: shop:supermarket",
                "type": "airnnb - commerce",
                "time": "2022-10-22T18:47:58Z"
            },
            "geometry": {
                "type": "Point",
                "coordinates": [
                    1.4579737,
                    43.6054427
                ]
            }
        },
        {
            "type": "Feature",
            "properties": {
                "name": "Ceci & cela",
                "cmt": "Amenity:Ceci & cela: shop:convenience",
                "type": "airnnb - commerce",
                "time": "2022-10-22T18:54:27Z"
            },
            "geometry": {
                "type": "Point",
                "coordinates": [
                    1.4442354,
                    43.6030188,
                    142
                ]
            }
        },
        {
            "type": "Feature",
            "properties": {
                "name": "Espace Gramont",
                "cmt": "Amenity:Espace Gramont: shop:mall",
                "type": "airnnb - commerce",
                "time": "2022-10-22T19:27:39Z"
            },
            "geometry": {
                "type": "Point",
                "coordinates": [
                    1.4842433,
                    43.6315442,
                    138.2
                ]
            }
        },
        {
            "type": "Feature",
            "properties": {
                "name": "La Glanerie",
                "cmt": "Amenity:La Glanerie: shop:charity",
                "type": "airnnb - commerce",
                "time": "2022-10-22T19:02:16Z"
            },
            "geometry": {
                "type": "Point",
                "coordinates": [
                    1.4573354,
                    43.605097,
                    149.8
                ]
            }
        },
        {
            "type": "Feature",
            "properties": {
                "name": "La Halle aux Pains",
                "cmt": "Amenity:La Halle aux Pains: shop:bakery",
                "type": "airnnb - commerce",
                "time": "2022-10-22T19:07:33Z"
            },
            "geometry": {
                "type": "Point",
                "coordinates": [
                    1.454047,
                    43.6002646
                ]
            }
        },
        {
            "type": "Feature",
            "properties": {
                "name": "La Pétrie",
                "cmt": "Amenity:La Petrie: shop:bakery",
                "type": "airnnb - commerce",
                "time": "2022-10-22T19:01:28Z"
            },
            "geometry": {
                "type": "Point",
                "coordinates": [
                    1.4542347,
                    43.6046814
                ]
            }
        },
        {
            "type": "Feature",
            "properties": {
                "name": "Le Panier d'Or",
                "cmt": "Amenity:Le Panier d'Or: shop:greengrocer",
                "type": "airnnb - commerce",
                "time": "2022-10-22T19:02:55Z"
            },
            "geometry": {
                "type": "Point",
                "coordinates": [
                    1.4589125,
                    43.6055709,
                    152.2
                ]
            }
        },
        {
            "type": "Feature",
            "properties": {
                "name": "Le Recantou",
                "cmt": "Amenity:Le Recantou: shop:convenience",
                "type": "airnnb - commerce",
                "time": "2022-10-22T18:50:41Z"
            },
            "geometry": {
                "type": "Point",
                "coordinates": [
                    1.4526308,
                    43.6068838
                ]
            }
        },
        {
            "type": "Feature",
            "properties": {
                "name": "Lidl",
                "cmt": "Amenity:Lidl: shop:supermarket",
                "type": "airnnb - commerce",
                "time": "2022-10-22T19:30:18Z"
            },
            "geometry": {
                "type": "Point",
                "coordinates": [
                    1.455828,
                    43.5975569,
                    148
                ]
            }
        },
        {
            "type": "Feature",
            "properties": {
                "name": "Marché Saint-Aubin",
                "cmt": "Amenity:Marche Saint-Aubin: shop:marketplace",
                "type": "airnnb - commerce",
                "time": "2022-10-22T19:13:01Z"
            },
            "geometry": {
                "type": "Point",
                "coordinates": [
                    1.4562035,
                    43.6036442,
                    147.2
                ]
            }
        },
        {
            "type": "Feature",
            "properties": {
                "name": "Saint Aubin Services Plus",
                "cmt": "Amenity:Saint Aubin Services Plus: service:copyshop",
                "type": "airnnb - commerce",
                "time": "2022-10-22T19:11:22Z"
            },
            "geometry": {
                "type": "Point",
                "coordinates": [
                    1.4541328,
                    43.6034811
                ]
            }
        },
        {
            "type": "Feature",
            "properties": {
                "name": "Spar",
                "cmt": "Amenity:Spar: shop:supermarket",
                "type": "airnnb - commerce",
                "time": "2022-10-22T19:12:22Z"
            },
            "geometry": {
                "type": "Point",
                "coordinates": [
                    1.4542508,
                    43.6045571
                ]
            }
        },
        {
            "type": "Feature",
            "properties": {
                "name": "Xavier et marie",
                "cmt": "Amenity:Xavier et marie: shop:cheese",
                "type": "airnnb - commerce",
                "time": "2022-10-22T19:07:50Z"
            },
            "geometry": {
                "type": "Point",
                "coordinates": [
                    1.4539021,
                    43.5997246
                ]
            }
        }
    ]
}